{"poi":[{"longitude":"18.172032088", "latitude":"60.178324067", "name":"Eld plats" ,"description":"Fin eldplats nära en sjö" ,"picture":"http://www.student.hig.se/~22wipe02/udgis/Projekt_GIS_Utveckling-main/Rastplats.jpg" ,"logo":"http://www.student.hig.se/~22wipe02/udgis/Projekt_GIS_Utveckling-main/Campfire.jpg"},
{"longitude":"17.618383504", "latitude":"60.447262419", "name":"Pakering" ,"description":"Pakering nära leden" ,"picture":"http://www.student.hig.se/~22wipe02/udgis/Projekt_GIS_Utveckling-main/parkering.jpg" ,"logo":"http://www.student.hig.se/~22wipe02/udgis/Projekt_GIS_Utveckling-main/Parking.jpg"},
{"longitude":"17.437954762", "latitude":"60.565412446", "name":"Wc" ,"description":"Wc nära leden" ,"picture":"http://www.student.hig.se/~22wipe02/udgis/Projekt_GIS_Utveckling-main/toa.jpg" ,"logo":"http://www.student.hig.se/~22wipe02/udgis/Projekt_GIS_Utveckling-main/WC.jpg"},
{"longitude":"16.920996631", "latitude":"60.154981863", "name":"Info" ,"description":"Info om natur" ,"picture":"http://www.student.hig.se/~22wipe02/udgis/Projekt_GIS_Utveckling-main/information.jpg" ,"logo":"http://www.student.hig.se/~22wipe02/udgis/Projekt_GIS_Utveckling-main/Info.png"},
{"longitude":"16.850730955", "latitude":"60.210922146","name":"Mat"  ,"description":"Johns pizza" ,"picture":"http://www.student.hig.se/~22wipe02/udgis/Projekt_GIS_Utveckling-main/pizza.jpg" ,"logo":"http://www.student.hig.se/~22wipe02/udgis/Projekt_GIS_Utveckling-main/Food.jpg"},
{"longitude":"17.131148142", "latitude":"59.975804725", "name":"Rastplats" ,"description":"trevlig rastplats vid leden" ,"picture":"http://www.student.hig.se/~22wipe02/udgis/Projekt_GIS_Utveckling-main/rast.jpg" ,"logo":"http://www.student.hig.se/~22wipe02/udgis/Projekt_GIS_Utveckling-main/Bench.png"}]}

